{
  "lastUpdated": "2025-12-19T23:33:55.725Z",
  "scrapeTimestamp": "2025-12-19T23:33:55.725Z",
  "hour": 23,
  "minute": 33,
  "second": 55,
  "date": "2025-12-19",
  "time": "23:33:55",
  "stationCount": 173,
  "stations": [
    {
      "name": "Gornja Radgona",
      "river": "Mura",
      "coordinates": [
        46.6769963,
        15.9913176
      ],
      "data": {
        "waterLevel": 68,
        "flow": 72,
        "temperature": 5.4,
        "trend": "pada",
        "timestamp": "2025-12-19T23:33:55.370Z"
      }
    },
    {
      "name": "Petanjci",
      "river": "Mura",
      "coordinates": [
        46.651483,
        16.0645597
      ],
      "data": {
        "waterLevel": 101,
        "flow": 66.4,
        "temperature": 4.5,
        "trend": "pada",
        "timestamp": "2025-12-19T23:33:55.378Z"
      }
    },
    {
      "name": "Cankova",
      "river": "Kučnica",
      "coordinates": [
        46.7184838,
        16.018699
      ],
      "data": {
        "waterLevel": 77,
        "flow": 0.024,
        "temperature": 4.3,
        "trend": null,
        "timestamp": "2025-12-19T23:33:55.383Z"
      }
    },
    {
      "name": "Pristava",
      "river": "Ščavnica",
      "coordinates": [
        45.6307268,
        14.0125465
      ],
      "data": {
        "waterLevel": 28,
        "flow": 0.642,
        "temperature": null,
        "trend": null,
        "timestamp": "2025-12-19T23:33:55.386Z"
      }
    },
    {
      "name": "Nuskova",
      "river": "Ledava",
      "coordinates": [
        46.8100667,
        16.0222857
      ],
      "data": {
        "waterLevel": 54,
        "flow": 0.117,
        "temperature": 4.3,
        "trend": null,
        "timestamp": "2025-12-19T23:33:55.388Z"
      }
    },
    {
      "name": "Polana",
      "river": "Ledava",
      "coordinates": [
        46.485683,
        15.6091331
      ],
      "data": {
        "waterLevel": 43,
        "flow": 0.257,
        "temperature": 4.9,
        "trend": null,
        "timestamp": "2025-12-19T23:33:55.392Z"
      }
    },
    {
      "name": "Čentiba",
      "river": "Ledava",
      "coordinates": [
        46.5523727,
        16.4826518
      ],
      "data": {
        "waterLevel": 85,
        "flow": 2.45,
        "temperature": 7.1,
        "trend": null,
        "timestamp": "2025-12-19T23:33:55.395Z"
      }
    },
    {
      "name": "Martjanci",
      "river": "Martjanski potok",
      "coordinates": [
        46.684924,
        16.1896103
      ],
      "data": {
        "waterLevel": 42,
        "flow": 0.023,
        "temperature": 4.7,
        "trend": null,
        "timestamp": "2025-12-19T23:33:55.397Z"
      }
    },
    {
      "name": "Kobilje",
      "river": "Kobiljski potok",
      "coordinates": [
        46.6849477,
        16.3922898
      ],
      "data": {
        "waterLevel": 81,
        "flow": 0.022,
        "temperature": 4.7,
        "trend": null,
        "timestamp": "2025-12-19T23:33:55.399Z"
      }
    },
    {
      "name": "Središče",
      "river": "Ivanjševski potok",
      "coordinates": [
        46.3891124,
        16.277099
      ],
      "data": {
        "waterLevel": 22,
        "flow": 0.02,
        "temperature": 4.2,
        "trend": null,
        "timestamp": "2025-12-19T23:33:55.401Z"
      }
    },
    {
      "name": "Hodoš",
      "river": "Velika Krka",
      "coordinates": [
        46.8259935,
        16.3261154
      ],
      "data": {
        "waterLevel": 11,
        "flow": 0.066,
        "temperature": 4.4,
        "trend": null,
        "timestamp": "2025-12-19T23:33:55.403Z"
      }
    },
    {
      "name": "Črneče",
      "river": "Drava",
      "coordinates": [
        46.5879722,
        14.9997275
      ],
      "data": {
        "waterLevel": 536,
        "flow": 96.1,
        "temperature": 4.6,
        "trend": "pada",
        "timestamp": "2025-12-19T23:33:55.404Z"
      }
    },
    {
      "name": "Ptuj",
      "river": "Drava",
      "coordinates": [
        46.4198096,
        15.8717378
      ],
      "data": {
        "waterLevel": 506,
        "flow": 52.5,
        "temperature": 4,
        "trend": "pada",
        "timestamp": "2025-12-19T23:33:55.406Z"
      }
    },
    {
      "name": "Borl",
      "river": "Drava",
      "coordinates": [
        46.3747623,
        16.002785
      ],
      "data": {
        "waterLevel": 70,
        "flow": null,
        "temperature": 5.5,
        "trend": null,
        "timestamp": "2025-12-19T23:33:55.410Z"
      }
    },
    {
      "name": "Zavrč",
      "river": "Drava",
      "coordinates": [
        46.3860221,
        16.0459879
      ],
      "data": {
        "waterLevel": 18,
        "flow": 19.3,
        "temperature": 4.3,
        "trend": null,
        "timestamp": "2025-12-19T23:33:55.414Z"
      }
    },
    {
      "name": "Črna",
      "river": "Meža",
      "coordinates": [
        46.2618343,
        14.6440056
      ],
      "data": {
        "waterLevel": 53,
        "flow": 1.28,
        "temperature": 2.8,
        "trend": null,
        "timestamp": "2025-12-19T23:33:55.417Z"
      }
    },
    {
      "name": "Otiški Vrh",
      "river": "Meža",
      "coordinates": [
        46.5747778,
        15.0293451
      ],
      "data": {
        "waterLevel": 57,
        "flow": 5.82,
        "temperature": 5.3,
        "trend": null,
        "timestamp": "2025-12-19T23:33:55.420Z"
      }
    },
    {
      "name": "Dovže",
      "river": "Mislinja",
      "coordinates": [
        46.4604545,
        15.1645773
      ],
      "data": {
        "waterLevel": 35,
        "flow": 1.25,
        "temperature": 4.6,
        "trend": null,
        "timestamp": "2025-12-19T23:33:55.423Z"
      }
    },
    {
      "name": "Muta",
      "river": "Bistrica",
      "coordinates": [
        46.6093522,
        15.1655099
      ],
      "data": {
        "waterLevel": 27,
        "flow": 0.743,
        "temperature": 3.6,
        "trend": null,
        "timestamp": "2025-12-19T23:33:55.430Z"
      }
    },
    {
      "name": "Ruta",
      "river": "Radoljna",
      "coordinates": [
        46.2239021,
        13.7456167
      ],
      "data": {
        "waterLevel": 113,
        "flow": 1.14,
        "temperature": 3.9,
        "trend": null,
        "timestamp": "2025-12-19T23:33:55.431Z"
      }
    },
    {
      "name": "Zreče",
      "river": "Dravinja",
      "coordinates": [
        46.3716354,
        15.3900185
      ],
      "data": {
        "waterLevel": 83,
        "flow": 0.513,
        "temperature": 6.8,
        "trend": null,
        "timestamp": "2025-12-19T23:33:55.433Z"
      }
    },
    {
      "name": "Loče",
      "river": "Dravinja",
      "coordinates": [
        46.2842778,
        15.2589807
      ],
      "data": {
        "waterLevel": 141,
        "flow": 1.42,
        "temperature": 6.6,
        "trend": null,
        "timestamp": "2025-12-19T23:33:55.435Z"
      }
    },
    {
      "name": "Makole",
      "river": "Dravinja",
      "coordinates": [
        46.3169639,
        15.6668625
      ],
      "data": {
        "waterLevel": 26,
        "flow": 1.93,
        "temperature": 5.8,
        "trend": null,
        "timestamp": "2025-12-19T23:33:55.437Z"
      }
    },
    {
      "name": "Videm",
      "river": "Dravinja",
      "coordinates": [
        46.3429502,
        15.9322379
      ],
      "data": {
        "waterLevel": 110,
        "flow": 4.14,
        "temperature": 5.1,
        "trend": null,
        "timestamp": "2025-12-19T23:33:55.438Z"
      }
    },
    {
      "name": "Spodnja Ložnica",
      "river": "Ložnica",
      "coordinates": [
        46.3821226,
        15.5286299
      ],
      "data": {
        "waterLevel": 90,
        "flow": 0.595,
        "temperature": 5.6,
        "trend": null,
        "timestamp": "2025-12-19T23:33:55.442Z"
      }
    },
    {
      "name": "Podlehnik",
      "river": "Rogatnica",
      "coordinates": [
        46.3351048,
        15.8795227
      ],
      "data": {
        "waterLevel": 90,
        "flow": 0.109,
        "temperature": 4.7,
        "trend": null,
        "timestamp": "2025-12-19T23:33:55.443Z"
      }
    },
    {
      "name": "Tržec",
      "river": "Polskava",
      "coordinates": [
        46.3639839,
        15.8774548
      ],
      "data": {
        "waterLevel": 94,
        "flow": 0.895,
        "temperature": 5.3,
        "trend": null,
        "timestamp": "2025-12-19T23:33:55.445Z"
      }
    },
    {
      "name": "Ranca",
      "river": "Pesnica",
      "coordinates": [
        45.8045976,
        14.3678301
      ],
      "data": {
        "waterLevel": 53,
        "flow": 0.245,
        "temperature": 3.7,
        "trend": null,
        "timestamp": "2025-12-19T23:33:55.447Z"
      }
    },
    {
      "name": "Gočova",
      "river": "Pesnica",
      "coordinates": [
        46.5468615,
        15.8681864
      ],
      "data": {
        "waterLevel": 125,
        "flow": 1.44,
        "temperature": 4,
        "trend": null,
        "timestamp": "2025-12-19T23:33:55.448Z"
      }
    },
    {
      "name": "Zamušani",
      "river": "Pesnica",
      "coordinates": [
        46.4225055,
        16.0322338
      ],
      "data": {
        "waterLevel": 95,
        "flow": 1.36,
        "temperature": 5.6,
        "trend": null,
        "timestamp": "2025-12-19T23:33:55.450Z"
      }
    },
    {
      "name": "Kranjska Gora",
      "river": "Sava Dolinka",
      "coordinates": [
        46.485132,
        13.7843957
      ],
      "data": {
        "waterLevel": 140,
        "flow": 1.04,
        "temperature": 5.4,
        "trend": null,
        "timestamp": "2025-12-19T23:33:55.452Z"
      }
    },
    {
      "name": "Jesenice",
      "river": "Sava Dolinka",
      "coordinates": [
        46.4323705,
        14.0623942
      ],
      "data": {
        "waterLevel": 78,
        "flow": 6.25,
        "temperature": 6.7,
        "trend": null,
        "timestamp": "2025-12-19T23:33:55.453Z"
      }
    },
    {
      "name": "Hrušica",
      "river": "Karavanke iztok",
      "coordinates": [
        45.851087,
        14.160466
      ],
      "data": {
        "waterLevel": null,
        "flow": null,
        "temperature": null,
        "trend": null,
        "timestamp": "2025-12-19T23:33:55.457Z"
      }
    },
    {
      "name": "Pri žagi",
      "river": "Završnica",
      "coordinates": [
        46.5611421,
        16.4482461
      ],
      "data": {
        "waterLevel": null,
        "flow": null,
        "temperature": null,
        "trend": null,
        "timestamp": "2025-12-19T23:33:55.458Z"
      }
    },
    {
      "name": "Podhom",
      "river": "Radovna",
      "coordinates": [
        46.3874907,
        14.094283
      ],
      "data": {
        "waterLevel": 109,
        "flow": 3.62,
        "temperature": 5.1,
        "trend": null,
        "timestamp": "2025-12-19T23:33:55.460Z"
      }
    },
    {
      "name": "Sveti Janez",
      "river": "Sava Bohinjka",
      "coordinates": [
        46.5797484,
        15.1317132
      ],
      "data": {
        "waterLevel": 110,
        "flow": 1.95,
        "temperature": 5.9,
        "trend": null,
        "timestamp": "2025-12-19T23:33:55.462Z"
      }
    },
    {
      "name": "Bodešče",
      "river": "Sava Bohinjka",
      "coordinates": [
        46.3485633,
        14.1360842
      ],
      "data": {
        "waterLevel": 72,
        "flow": 7.23,
        "temperature": 6.2,
        "trend": null,
        "timestamp": "2025-12-19T23:33:55.464Z"
      }
    },
    {
      "name": "Ukanc",
      "river": "Savica",
      "coordinates": [
        46.2792903,
        13.8299754
      ],
      "data": {
        "waterLevel": 48,
        "flow": 0.781,
        "temperature": 5.5,
        "trend": null,
        "timestamp": "2025-12-19T23:33:55.465Z"
      }
    },
    {
      "name": "Sveti Duh",
      "river": "Bohinjsko jezero",
      "coordinates": [
        46.2348418,
        13.7197586
      ],
      "data": {
        "waterLevel": 19,
        "flow": null,
        "temperature": 5.9,
        "trend": null,
        "timestamp": "2025-12-19T23:33:55.467Z"
      }
    },
    {
      "name": "Stara Fužina",
      "river": "Mostnica",
      "coordinates": [
        46.2879339,
        13.8936598
      ],
      "data": {
        "waterLevel": 110,
        "flow": 0.859,
        "temperature": 6.8,
        "trend": null,
        "timestamp": "2025-12-19T23:33:55.469Z"
      }
    },
    {
      "name": "Bohinjska Bistrica",
      "river": "Bistrica",
      "coordinates": [
        46.274266,
        13.9591646
      ],
      "data": {
        "waterLevel": 50,
        "flow": 1.52,
        "temperature": 5.6,
        "trend": null,
        "timestamp": "2025-12-19T23:33:55.470Z"
      }
    },
    {
      "name": "Mlino",
      "river": "Blejsko jezero",
      "coordinates": [
        46.3577798,
        14.0993695
      ],
      "data": {
        "waterLevel": 44,
        "flow": null,
        "temperature": 7.6,
        "trend": null,
        "timestamp": "2025-12-19T23:33:55.472Z"
      }
    },
    {
      "name": "Radovljica",
      "river": "Sava",
      "coordinates": [
        46.343509,
        14.1720227
      ],
      "data": {
        "waterLevel": 46,
        "flow": 15.3,
        "temperature": 6.3,
        "trend": "pada",
        "timestamp": "2025-12-19T23:33:55.477Z"
      }
    },
    {
      "name": "Okroglo",
      "river": "Sava",
      "coordinates": [
        46.2584594,
        14.3204865
      ],
      "data": {
        "waterLevel": 131,
        "flow": 45.7,
        "temperature": 6.8,
        "trend": "narašča",
        "timestamp": "2025-12-19T23:33:55.479Z"
      }
    },
    {
      "name": "Medno",
      "river": "Sava",
      "coordinates": [
        46.1222004,
        14.4390741
      ],
      "data": {
        "waterLevel": null,
        "flow": null,
        "temperature": null,
        "trend": null,
        "timestamp": "2025-12-19T23:33:55.480Z"
      }
    },
    {
      "name": "Šentjakob",
      "river": "Sava",
      "coordinates": [
        46.0901236,
        14.5806172
      ],
      "data": {
        "waterLevel": 278,
        "flow": 47.8,
        "temperature": 6.2,
        "trend": "pada",
        "timestamp": "2025-12-19T23:33:55.482Z"
      }
    },
    {
      "name": "Litija",
      "river": "Sava",
      "coordinates": [
        46.0575677,
        14.8314192
      ],
      "data": {
        "waterLevel": 66,
        "flow": 93.3,
        "temperature": 7.6,
        "trend": null,
        "timestamp": "2025-12-19T23:33:55.484Z"
      }
    },
    {
      "name": "Hrastnik",
      "river": "Sava",
      "coordinates": [
        46.1456196,
        15.0817358
      ],
      "data": {
        "waterLevel": 217,
        "flow": 77.2,
        "temperature": 7.7,
        "trend": "pada",
        "timestamp": "2025-12-19T23:33:55.486Z"
      }
    },
    {
      "name": "Čatež",
      "river": "Sava",
      "coordinates": [
        45.9705365,
        14.9588038
      ],
      "data": {
        "waterLevel": 122,
        "flow": 130,
        "temperature": 7.8,
        "trend": null,
        "timestamp": "2025-12-19T23:33:55.487Z"
      }
    },
    {
      "name": "Jesenice na Dolenjskem",
      "river": "Sava",
      "coordinates": [
        45.859364,
        15.6890816
      ],
      "data": {
        "waterLevel": 91,
        "flow": null,
        "temperature": null,
        "trend": null,
        "timestamp": "2025-12-19T23:33:55.489Z"
      }
    },
    {
      "name": "Ovsiše",
      "river": "Lipnica",
      "coordinates": [
        46.2872421,
        14.2543486
      ],
      "data": {
        "waterLevel": 107,
        "flow": 0.653,
        "temperature": 6.4,
        "trend": null,
        "timestamp": "2025-12-19T23:33:55.491Z"
      }
    },
    {
      "name": "Preska",
      "river": "Tržiška Bistrica",
      "coordinates": [
        45.710302,
        14.1595496
      ],
      "data": {
        "waterLevel": 70,
        "flow": 2.98,
        "temperature": 6.4,
        "trend": null,
        "timestamp": "2025-12-19T23:33:55.492Z"
      }
    },
    {
      "name": "Lajb",
      "river": "Mošenik",
      "coordinates": [
        46.4152726,
        14.2707291
      ],
      "data": {
        "waterLevel": null,
        "flow": null,
        "temperature": null,
        "trend": null,
        "timestamp": "2025-12-19T23:33:55.494Z"
      }
    },
    {
      "name": "Kokra",
      "river": "Kokra",
      "coordinates": [
        46.2659149,
        14.3981134
      ],
      "data": {
        "waterLevel": 64,
        "flow": 2,
        "temperature": 5.9,
        "trend": null,
        "timestamp": "2025-12-19T23:33:55.496Z"
      }
    },
    {
      "name": "Kranj",
      "river": "Kokra",
      "coordinates": [
        46.2432913,
        14.3549353
      ],
      "data": {
        "waterLevel": 70,
        "flow": 2.45,
        "temperature": 5.7,
        "trend": null,
        "timestamp": "2025-12-19T23:33:55.498Z"
      }
    },
    {
      "name": "Suha",
      "river": "Sora",
      "coordinates": [
        46.1647549,
        14.3243793
      ],
      "data": {
        "waterLevel": 97,
        "flow": 6.62,
        "temperature": 7.2,
        "trend": null,
        "timestamp": "2025-12-19T23:33:55.500Z"
      }
    },
    {
      "name": "Medvode",
      "river": "Sora",
      "coordinates": [
        46.1402285,
        14.4130728
      ],
      "data": {
        "waterLevel": 140,
        "flow": 34.6,
        "temperature": 7.2,
        "trend": null,
        "timestamp": "2025-12-19T23:33:55.501Z"
      }
    },
    {
      "name": "Žiri",
      "river": "Poljanska Sora",
      "coordinates": [
        46.0510703,
        14.1106226
      ],
      "data": {
        "waterLevel": 76,
        "flow": 0.6,
        "temperature": 6,
        "trend": null,
        "timestamp": "2025-12-19T23:33:55.503Z"
      }
    },
    {
      "name": "Zminec",
      "river": "Poljanska Sora",
      "coordinates": [
        46.1480273,
        14.284405
      ],
      "data": {
        "waterLevel": 124,
        "flow": 4.79,
        "temperature": 6.9,
        "trend": null,
        "timestamp": "2025-12-19T23:33:55.505Z"
      }
    },
    {
      "name": "Železniki",
      "river": "Selška Sora",
      "coordinates": [
        46.2257913,
        14.1693085
      ],
      "data": {
        "waterLevel": 149,
        "flow": 1.5,
        "temperature": 5.5,
        "trend": null,
        "timestamp": "2025-12-19T23:33:55.506Z"
      }
    },
    {
      "name": "Vešter",
      "river": "Selška Sora",
      "coordinates": [
        46.1751053,
        14.2903138
      ],
      "data": {
        "waterLevel": 83,
        "flow": 2.82,
        "temperature": 6.3,
        "trend": null,
        "timestamp": "2025-12-19T23:33:55.508Z"
      }
    },
    {
      "name": "Kamniška Bistrica",
      "river": "Kamniška Bistrica",
      "coordinates": [
        46.2062811,
        14.6036813
      ],
      "data": {
        "waterLevel": null,
        "flow": null,
        "temperature": null,
        "trend": null,
        "timestamp": "2025-12-19T23:33:55.509Z"
      }
    },
    {
      "name": "Kamnik",
      "river": "Kamniška Bistrica",
      "coordinates": [
        46.2257358,
        14.6118936
      ],
      "data": {
        "waterLevel": 58,
        "flow": 4.29,
        "temperature": 7,
        "trend": null,
        "timestamp": "2025-12-19T23:33:55.511Z"
      }
    },
    {
      "name": "Vir",
      "river": "Kamniška Bistrica",
      "coordinates": [
        46.1513496,
        14.6055232
      ],
      "data": {
        "waterLevel": 118,
        "flow": null,
        "temperature": 5.6,
        "trend": null,
        "timestamp": "2025-12-19T23:33:55.513Z"
      }
    },
    {
      "name": "Bišče",
      "river": "Kamniška Bistrica",
      "coordinates": [
        46.1030124,
        14.6129642
      ],
      "data": {
        "waterLevel": 102,
        "flow": null,
        "temperature": null,
        "trend": null,
        "timestamp": "2025-12-19T23:33:55.515Z"
      }
    },
    {
      "name": "Nevlje",
      "river": "Nevljica",
      "coordinates": [
        46.2315507,
        14.6241335
      ],
      "data": {
        "waterLevel": 88,
        "flow": 0.744,
        "temperature": 5.6,
        "trend": null,
        "timestamp": "2025-12-19T23:33:55.516Z"
      }
    },
    {
      "name": "Podrečje",
      "river": "Rača",
      "coordinates": [
        46.1440044,
        14.6105031
      ],
      "data": {
        "waterLevel": 51,
        "flow": 2.75,
        "temperature": 6.8,
        "trend": null,
        "timestamp": "2025-12-19T23:33:55.520Z"
      }
    },
    {
      "name": "Topole",
      "river": "Pšata",
      "coordinates": [
        45.8196259,
        14.2695484
      ],
      "data": {
        "waterLevel": 54,
        "flow": null,
        "temperature": 4.6,
        "trend": null,
        "timestamp": "2025-12-19T23:33:55.521Z"
      }
    },
    {
      "name": "Loka",
      "river": "Pšata",
      "coordinates": [
        46.0535988,
        15.2054717
      ],
      "data": {
        "waterLevel": 19,
        "flow": 0.236,
        "temperature": 4.4,
        "trend": null,
        "timestamp": "2025-12-19T23:33:55.523Z"
      }
    },
    {
      "name": "Zagorje",
      "river": "Medija",
      "coordinates": [
        46.1205975,
        14.9912364
      ],
      "data": {
        "waterLevel": 28,
        "flow": 0.924,
        "temperature": 7.2,
        "trend": null,
        "timestamp": "2025-12-19T23:33:55.525Z"
      }
    },
    {
      "name": "Žebnik",
      "river": "Sopota",
      "coordinates": [
        46.1372185,
        14.3520936
      ],
      "data": {
        "waterLevel": 30,
        "flow": 0.508,
        "temperature": 7.6,
        "trend": null,
        "timestamp": "2025-12-19T23:33:55.526Z"
      }
    },
    {
      "name": "Martinja vas",
      "river": "Mirna",
      "coordinates": [
        45.9346077,
        14.9377108
      ],
      "data": {
        "waterLevel": 92,
        "flow": 0.836,
        "temperature": 6.1,
        "trend": null,
        "timestamp": "2025-12-19T23:33:55.528Z"
      }
    },
    {
      "name": "Jelovec",
      "river": "Mirna",
      "coordinates": [
        45.9892522,
        15.2398499
      ],
      "data": {
        "waterLevel": 60,
        "flow": 1.35,
        "temperature": 5.4,
        "trend": null,
        "timestamp": "2025-12-19T23:33:55.530Z"
      }
    },
    {
      "name": "Metni Vrh",
      "river": "Sevnična",
      "coordinates": [
        46.0440563,
        15.3120748
      ],
      "data": {
        "waterLevel": 35,
        "flow": 0.208,
        "temperature": 5.5,
        "trend": null,
        "timestamp": "2025-12-19T23:33:55.532Z"
      }
    },
    {
      "name": "Rogatec",
      "river": "Sotla",
      "coordinates": [
        46.2273681,
        15.6995714
      ],
      "data": {
        "waterLevel": 35,
        "flow": 0.12,
        "temperature": 3.6,
        "trend": null,
        "timestamp": "2025-12-19T23:33:55.533Z"
      }
    },
    {
      "name": "Rakovec",
      "river": "Sotla",
      "coordinates": [
        46.2071721,
        15.4703647
      ],
      "data": {
        "waterLevel": 31,
        "flow": 2.58,
        "temperature": 5,
        "trend": null,
        "timestamp": "2025-12-19T23:33:55.535Z"
      }
    },
    {
      "name": "Sodna vas",
      "river": "Mestinjščica",
      "coordinates": [
        46.1753183,
        15.5967358
      ],
      "data": {
        "waterLevel": null,
        "flow": null,
        "temperature": null,
        "trend": null,
        "timestamp": "2025-12-19T23:33:55.537Z"
      }
    },
    {
      "name": "Zagaj",
      "river": "Bistrica",
      "coordinates": [
        45.9426539,
        15.1027807
      ],
      "data": {
        "waterLevel": 61,
        "flow": 0.61,
        "temperature": 5.6,
        "trend": null,
        "timestamp": "2025-12-19T23:33:55.539Z"
      }
    },
    {
      "name": "Petrina",
      "river": "Kolpa",
      "coordinates": [
        45.4650725,
        14.8530801
      ],
      "data": {
        "waterLevel": 77,
        "flow": 9.95,
        "temperature": 7.3,
        "trend": null,
        "timestamp": "2025-12-19T23:33:55.540Z"
      }
    },
    {
      "name": "Sodevci",
      "river": "Kolpa",
      "coordinates": [
        45.4865882,
        15.0797072
      ],
      "data": {
        "waterLevel": 77,
        "flow": 17,
        "temperature": 7.8,
        "trend": null,
        "timestamp": "2025-12-19T23:33:55.542Z"
      }
    },
    {
      "name": "Metlika",
      "river": "Kolpa",
      "coordinates": [
        45.6501029,
        15.3174483
      ],
      "data": {
        "waterLevel": 37,
        "flow": 23.5,
        "temperature": 6.8,
        "trend": null,
        "timestamp": "2025-12-19T23:33:55.544Z"
      }
    },
    {
      "name": "Livold",
      "river": "Rinža",
      "coordinates": [
        45.612285,
        14.8913762
      ],
      "data": {
        "waterLevel": 81,
        "flow": 0.01,
        "temperature": 6.7,
        "trend": null,
        "timestamp": "2025-12-19T23:33:55.545Z"
      }
    },
    {
      "name": "Spodnja Bilpa",
      "river": "Bilpa",
      "coordinates": [
        45.511287,
        14.9651118
      ],
      "data": {
        "waterLevel": null,
        "flow": null,
        "temperature": null,
        "trend": null,
        "timestamp": "2025-12-19T23:33:55.547Z"
      }
    },
    {
      "name": "Gradac",
      "river": "Lahinja",
      "coordinates": [
        45.6143709,
        15.2447945
      ],
      "data": {
        "waterLevel": 109,
        "flow": 1.32,
        "temperature": 6.9,
        "trend": null,
        "timestamp": "2025-12-19T23:33:55.549Z"
      }
    },
    {
      "name": "Vrhnika",
      "river": "Ljubljanica",
      "coordinates": [
        45.9663607,
        14.2980772
      ],
      "data": {
        "waterLevel": 86,
        "flow": 6.22,
        "temperature": 8.3,
        "trend": null,
        "timestamp": "2025-12-19T23:33:55.552Z"
      }
    },
    {
      "name": "Kamin",
      "river": "Ljubljanica",
      "coordinates": [
        46.1632734,
        14.5715685
      ],
      "data": {
        "waterLevel": 43,
        "flow": null,
        "temperature": 7.7,
        "trend": null,
        "timestamp": "2025-12-19T23:33:55.554Z"
      }
    },
    {
      "name": "Moste",
      "river": "Ljubljanica",
      "coordinates": [
        46.0567523,
        14.5467033
      ],
      "data": {
        "waterLevel": null,
        "flow": null,
        "temperature": null,
        "trend": null,
        "timestamp": "2025-12-19T23:33:55.555Z"
      }
    },
    {
      "name": "Verd",
      "river": "Ljubija",
      "coordinates": [
        45.9479373,
        14.3039444
      ],
      "data": {
        "waterLevel": 164,
        "flow": 4.18,
        "temperature": 8,
        "trend": null,
        "timestamp": "2025-12-19T23:33:55.557Z"
      }
    },
    {
      "name": "Bistra",
      "river": "Bistra",
      "coordinates": [
        45.9478239,
        14.333887
      ],
      "data": {
        "waterLevel": 117,
        "flow": 5.71,
        "temperature": 8.2,
        "trend": null,
        "timestamp": "2025-12-19T23:33:55.559Z"
      }
    },
    {
      "name": "Borovnica",
      "river": "Borovniščica",
      "coordinates": [
        45.9194745,
        14.3637139
      ],
      "data": {
        "waterLevel": 50,
        "flow": 0.305,
        "temperature": 7.6,
        "trend": null,
        "timestamp": "2025-12-19T23:33:55.560Z"
      }
    },
    {
      "name": "Iška vas",
      "river": "Iška",
      "coordinates": [
        45.9403653,
        14.5111952
      ],
      "data": {
        "waterLevel": 159,
        "flow": 0.298,
        "temperature": 6.2,
        "trend": null,
        "timestamp": "2025-12-19T23:33:55.562Z"
      }
    },
    {
      "name": "Ig",
      "river": "Ižica",
      "coordinates": [
        45.9592409,
        14.5276014
      ],
      "data": {
        "waterLevel": 185,
        "flow": 0.447,
        "temperature": 8.5,
        "trend": null,
        "timestamp": "2025-12-19T23:33:55.563Z"
      }
    },
    {
      "name": "Bokalce",
      "river": "Gradaščica",
      "coordinates": [
        46.052233,
        14.4461642
      ],
      "data": {
        "waterLevel": 56,
        "flow": 1.53,
        "temperature": 7.1,
        "trend": null,
        "timestamp": "2025-12-19T23:33:55.566Z"
      }
    },
    {
      "name": "Dvor",
      "river": "Gradaščica",
      "coordinates": [
        46.1053735,
        14.4421322
      ],
      "data": {
        "waterLevel": 81,
        "flow": 1.04,
        "temperature": 6.1,
        "trend": null,
        "timestamp": "2025-12-19T23:33:55.567Z"
      }
    },
    {
      "name": "Razori",
      "river": "Šujica",
      "coordinates": [
        46.0491144,
        14.4376408
      ],
      "data": {
        "waterLevel": 36,
        "flow": 0.592,
        "temperature": 6.9,
        "trend": null,
        "timestamp": "2025-12-19T23:33:55.569Z"
      }
    },
    {
      "name": "Vrhnika pri Ložu",
      "river": "Veliki Obrh",
      "coordinates": [
        45.7048778,
        14.5056502
      ],
      "data": {
        "waterLevel": null,
        "flow": null,
        "temperature": null,
        "trend": null,
        "timestamp": "2025-12-19T23:33:55.571Z"
      }
    },
    {
      "name": "Gorenje Jezero",
      "river": "Stržen",
      "coordinates": [
        45.72963,
        14.4114853
      ],
      "data": {
        "waterLevel": 89,
        "flow": null,
        "temperature": 7.6,
        "trend": null,
        "timestamp": "2025-12-19T23:33:55.573Z"
      }
    },
    {
      "name": "Dolenje Jezero",
      "river": "Stržen",
      "coordinates": [
        45.776853,
        14.3595602
      ],
      "data": {
        "waterLevel": 249,
        "flow": null,
        "temperature": 6.8,
        "trend": null,
        "timestamp": "2025-12-19T23:33:55.574Z"
      }
    },
    {
      "name": "Cerknica",
      "river": "Cerkniščica",
      "coordinates": [
        45.7936578,
        14.361883
      ],
      "data": {
        "waterLevel": 191,
        "flow": 0.267,
        "temperature": 6.4,
        "trend": null,
        "timestamp": "2025-12-19T23:33:55.576Z"
      }
    },
    {
      "name": "Prestranek",
      "river": "Pivka",
      "coordinates": [
        45.7285348,
        14.1855972
      ],
      "data": {
        "waterLevel": null,
        "flow": 0.001,
        "temperature": null,
        "trend": null,
        "timestamp": "2025-12-19T23:33:55.578Z"
      }
    },
    {
      "name": "Postojnska jama",
      "river": "Pivka",
      "coordinates": [
        45.7827107,
        14.2038553
      ],
      "data": {
        "waterLevel": 102,
        "flow": null,
        "temperature": 5.7,
        "trend": null,
        "timestamp": "2025-12-19T23:33:55.579Z"
      }
    },
    {
      "name": "Mali Otok",
      "river": "Nanoščica",
      "coordinates": [
        45.7788068,
        14.178927
      ],
      "data": {
        "waterLevel": 99,
        "flow": 0.671,
        "temperature": 5.2,
        "trend": null,
        "timestamp": "2025-12-19T23:33:55.581Z"
      }
    },
    {
      "name": "Malni",
      "river": "Malenščica",
      "coordinates": [
        45.817249,
        14.4736468
      ],
      "data": {
        "waterLevel": 106,
        "flow": 5.69,
        "temperature": 7.1,
        "trend": null,
        "timestamp": "2025-12-19T23:33:55.584Z"
      }
    },
    {
      "name": "Logatec",
      "river": "Logaščica",
      "coordinates": [
        45.9178067,
        14.2233802
      ],
      "data": {
        "waterLevel": 123,
        "flow": 0.11,
        "temperature": 5.8,
        "trend": null,
        "timestamp": "2025-12-19T23:33:55.586Z"
      }
    },
    {
      "name": "Solčava",
      "river": "Savinja",
      "coordinates": [
        46.4195569,
        14.6920242
      ],
      "data": {
        "waterLevel": 83,
        "flow": 1.06,
        "temperature": 5.3,
        "trend": null,
        "timestamp": "2025-12-19T23:33:55.588Z"
      }
    },
    {
      "name": "Nazarje",
      "river": "Savinja",
      "coordinates": [
        46.3205865,
        14.9487121
      ],
      "data": {
        "waterLevel": 53,
        "flow": 7.43,
        "temperature": 6.3,
        "trend": null,
        "timestamp": "2025-12-19T23:33:55.590Z"
      }
    },
    {
      "name": "Letuš",
      "river": "Savinja",
      "coordinates": [
        46.3168558,
        15.0210325
      ],
      "data": {
        "waterLevel": 76,
        "flow": 8.48,
        "temperature": 5.2,
        "trend": null,
        "timestamp": "2025-12-19T23:33:55.591Z"
      }
    },
    {
      "name": "Medlog",
      "river": "Savinja",
      "coordinates": [
        46.2388291,
        15.2350734
      ],
      "data": {
        "waterLevel": 145,
        "flow": null,
        "temperature": 7,
        "trend": null,
        "timestamp": "2025-12-19T23:33:55.593Z"
      }
    },
    {
      "name": "Laško",
      "river": "Savinja",
      "coordinates": [
        46.1537984,
        15.2354706
      ],
      "data": {
        "waterLevel": 87,
        "flow": 14.9,
        "temperature": 6.4,
        "trend": null,
        "timestamp": "2025-12-19T23:33:55.596Z"
      }
    },
    {
      "name": "Veliko Širje",
      "river": "Savinja",
      "coordinates": [
        46.1018608,
        15.1942901
      ],
      "data": {
        "waterLevel": 179,
        "flow": 14.4,
        "temperature": 6.6,
        "trend": null,
        "timestamp": "2025-12-19T23:33:55.598Z"
      }
    },
    {
      "name": "Luče",
      "river": "Lučnica",
      "coordinates": [
        46.3553576,
        14.7451413
      ],
      "data": {
        "waterLevel": 85,
        "flow": 0.671,
        "temperature": 4.7,
        "trend": null,
        "timestamp": "2025-12-19T23:33:55.600Z"
      }
    },
    {
      "name": "Kraše",
      "river": "Dreta",
      "coordinates": [
        46.2868189,
        14.9068889
      ],
      "data": {
        "waterLevel": 66,
        "flow": 1.5,
        "temperature": 5.1,
        "trend": null,
        "timestamp": "2025-12-19T23:33:55.602Z"
      }
    },
    {
      "name": "Velenje",
      "river": "Paka",
      "coordinates": [
        46.3592869,
        15.1150301
      ],
      "data": {
        "waterLevel": 105,
        "flow": 0.546,
        "temperature": 4.5,
        "trend": null,
        "timestamp": "2025-12-19T23:33:55.604Z"
      }
    },
    {
      "name": "Šoštanj",
      "river": "Paka",
      "coordinates": [
        46.3773929,
        15.0459505
      ],
      "data": {
        "waterLevel": 158,
        "flow": 0.727,
        "temperature": 5.7,
        "trend": null,
        "timestamp": "2025-12-19T23:33:55.605Z"
      }
    },
    {
      "name": "Rečica",
      "river": "Paka",
      "coordinates": [
        45.5728329,
        14.2247924
      ],
      "data": {
        "waterLevel": 87,
        "flow": 1.56,
        "temperature": 5.7,
        "trend": null,
        "timestamp": "2025-12-19T23:33:55.607Z"
      }
    },
    {
      "name": "Gaberke",
      "river": "Velunja",
      "coordinates": [
        46.3995693,
        15.0798653
      ],
      "data": {
        "waterLevel": 122,
        "flow": 0.243,
        "temperature": 2.6,
        "trend": null,
        "timestamp": "2025-12-19T23:33:55.609Z"
      }
    },
    {
      "name": "Dolenja vas",
      "river": "Bolska",
      "coordinates": [
        45.8301813,
        15.2199932
      ],
      "data": {
        "waterLevel": 87,
        "flow": 1.7,
        "temperature": 7.9,
        "trend": null,
        "timestamp": "2025-12-19T23:33:55.610Z"
      }
    },
    {
      "name": "Levec",
      "river": "Ložnica",
      "coordinates": [
        46.2407484,
        15.217976
      ],
      "data": {
        "waterLevel": 55,
        "flow": 0.561,
        "temperature": 5.7,
        "trend": null,
        "timestamp": "2025-12-19T23:33:55.612Z"
      }
    },
    {
      "name": "Črnolica",
      "river": "Voglajna",
      "coordinates": [
        46.2031869,
        15.4189111
      ],
      "data": {
        "waterLevel": 55,
        "flow": 0.7,
        "temperature": 4.9,
        "trend": null,
        "timestamp": "2025-12-19T23:33:55.614Z"
      }
    },
    {
      "name": "Celje",
      "river": "Voglajna",
      "coordinates": [
        46.2293889,
        15.2616828
      ],
      "data": {
        "waterLevel": 78,
        "flow": null,
        "temperature": 5.2,
        "trend": null,
        "timestamp": "2025-12-19T23:33:55.616Z"
      }
    },
    {
      "name": "Polže",
      "river": "Hudinja",
      "coordinates": [
        46.3194013,
        15.2740194
      ],
      "data": {
        "waterLevel": 32,
        "flow": 0.677,
        "temperature": 5,
        "trend": null,
        "timestamp": "2025-12-19T23:33:55.617Z"
      }
    },
    {
      "name": "Škofja vas",
      "river": "Hudinja",
      "coordinates": [
        46.2690814,
        15.2907989
      ],
      "data": {
        "waterLevel": 31,
        "flow": 1.14,
        "temperature": 5.7,
        "trend": null,
        "timestamp": "2025-12-19T23:33:55.619Z"
      }
    },
    {
      "name": "Podbukovje",
      "river": "Krka",
      "coordinates": [
        45.8756838,
        14.7815286
      ],
      "data": {
        "waterLevel": 34,
        "flow": 2.52,
        "temperature": 9.2,
        "trend": null,
        "timestamp": "2025-12-19T23:33:55.622Z"
      }
    },
    {
      "name": "Soteska",
      "river": "Krka",
      "coordinates": [
        46.232711,
        14.6504588
      ],
      "data": {
        "waterLevel": 124,
        "flow": 8.84,
        "temperature": 8.7,
        "trend": null,
        "timestamp": "2025-12-19T23:33:55.624Z"
      }
    },
    {
      "name": "Gorenja Gomila",
      "river": "Krka",
      "coordinates": [
        45.8642048,
        15.2868552
      ],
      "data": {
        "waterLevel": 49,
        "flow": 11,
        "temperature": 7.4,
        "trend": null,
        "timestamp": "2025-12-19T23:33:55.626Z"
      }
    },
    {
      "name": "Podbočje",
      "river": "Krka",
      "coordinates": [
        45.8641442,
        15.4666945
      ],
      "data": {
        "waterLevel": 78,
        "flow": 20.3,
        "temperature": 7.6,
        "trend": null,
        "timestamp": "2025-12-19T23:33:55.627Z"
      }
    },
    {
      "name": "Mlačevo",
      "river": "Grosupeljščica",
      "coordinates": [
        45.9403614,
        14.6851212
      ],
      "data": {
        "waterLevel": 99,
        "flow": 0.209,
        "temperature": 7.2,
        "trend": null,
        "timestamp": "2025-12-19T23:33:55.629Z"
      }
    },
    {
      "name": "Rašica",
      "river": "Rašica",
      "coordinates": [
        46.1357719,
        14.510431
      ],
      "data": {
        "waterLevel": 73,
        "flow": 0.631,
        "temperature": 6.3,
        "trend": null,
        "timestamp": "2025-12-19T23:33:55.631Z"
      }
    },
    {
      "name": "Gradiček",
      "river": "Poltarica",
      "coordinates": [
        45.8884945,
        14.7691995
      ],
      "data": {
        "waterLevel": null,
        "flow": null,
        "temperature": null,
        "trend": null,
        "timestamp": "2025-12-19T23:33:55.632Z"
      }
    },
    {
      "name": "Ivančna Gorica",
      "river": "Višnjica",
      "coordinates": [
        45.9389896,
        14.8050459
      ],
      "data": {
        "waterLevel": 71,
        "flow": 0.393,
        "temperature": 6.4,
        "trend": null,
        "timestamp": "2025-12-19T23:33:55.634Z"
      }
    },
    {
      "name": "Fužina",
      "river": "Globočec",
      "coordinates": [
        45.8623902,
        14.8313965
      ],
      "data": {
        "waterLevel": null,
        "flow": null,
        "temperature": null,
        "trend": null,
        "timestamp": "2025-12-19T23:33:55.636Z"
      }
    },
    {
      "name": "Meniška vas",
      "river": "Radešca",
      "coordinates": [
        45.7603297,
        15.0382665
      ],
      "data": {
        "waterLevel": 99,
        "flow": 1.87,
        "temperature": 9.1,
        "trend": null,
        "timestamp": "2025-12-19T23:33:55.638Z"
      }
    },
    {
      "name": "Rožni Vrh",
      "river": "Temenica",
      "coordinates": [
        46.0441159,
        14.885687
      ],
      "data": {
        "waterLevel": 127,
        "flow": 0.173,
        "temperature": 6.1,
        "trend": null,
        "timestamp": "2025-12-19T23:33:55.640Z"
      }
    },
    {
      "name": "Prečna",
      "river": "Prečna",
      "coordinates": [
        45.8124417,
        15.122856
      ],
      "data": {
        "waterLevel": 95,
        "flow": 0.94,
        "temperature": 10.6,
        "trend": null,
        "timestamp": "2025-12-19T23:33:55.642Z"
      }
    },
    {
      "name": "Stopiče",
      "river": "Težka voda",
      "coordinates": [
        45.769873,
        15.2091416
      ],
      "data": {
        "waterLevel": null,
        "flow": null,
        "temperature": null,
        "trend": null,
        "timestamp": "2025-12-19T23:33:55.644Z"
      }
    },
    {
      "name": "Škocjan",
      "river": "Radulja",
      "coordinates": [
        45.907782,
        15.2906185
      ],
      "data": {
        "waterLevel": 74,
        "flow": 0.55,
        "temperature": 7.9,
        "trend": null,
        "timestamp": "2025-12-19T23:33:55.645Z"
      }
    },
    {
      "name": "Globočice pri Kostanjevici",
      "river": "Studena",
      "coordinates": [
        45.8402187,
        15.428918
      ],
      "data": {
        "waterLevel": null,
        "flow": null,
        "temperature": null,
        "trend": null,
        "timestamp": "2025-12-19T23:33:55.647Z"
      }
    },
    {
      "name": "Sodražica",
      "river": "Bistrica",
      "coordinates": [
        45.7619709,
        14.6346442
      ],
      "data": {
        "waterLevel": 95,
        "flow": 0.314,
        "temperature": 7,
        "trend": null,
        "timestamp": "2025-12-19T23:33:55.649Z"
      }
    },
    {
      "name": "Prigorica",
      "river": "Ribnica",
      "coordinates": [
        45.7132694,
        14.7495234
      ],
      "data": {
        "waterLevel": 51,
        "flow": 0.462,
        "temperature": 5.6,
        "trend": null,
        "timestamp": "2025-12-19T23:33:55.650Z"
      }
    },
    {
      "name": "Blate",
      "river": "Rakitnica",
      "coordinates": [
        45.6984468,
        14.7446514
      ],
      "data": {
        "waterLevel": 94,
        "flow": null,
        "temperature": 7.9,
        "trend": null,
        "timestamp": "2025-12-19T23:33:55.652Z"
      }
    },
    {
      "name": "Kršovec",
      "river": "Soča",
      "coordinates": [
        45.870468,
        13.7244719
      ],
      "data": {
        "waterLevel": 91,
        "flow": 4.79,
        "temperature": 7.1,
        "trend": null,
        "timestamp": "2025-12-19T23:33:55.654Z"
      }
    },
    {
      "name": "Log Čezsoški",
      "river": "Soča",
      "coordinates": [
        46.3109073,
        13.489501
      ],
      "data": {
        "waterLevel": 76,
        "flow": null,
        "temperature": 7.4,
        "trend": null,
        "timestamp": "2025-12-19T23:33:55.656Z"
      }
    },
    {
      "name": "Kobarid",
      "river": "Soča",
      "coordinates": [
        46.2455462,
        13.57917
      ],
      "data": {
        "waterLevel": 76,
        "flow": 13.4,
        "temperature": 7.5,
        "trend": null,
        "timestamp": "2025-12-19T23:33:55.658Z"
      }
    },
    {
      "name": "Solkan",
      "river": "Soča",
      "coordinates": [
        45.9678211,
        13.6455643
      ],
      "data": {
        "waterLevel": 186,
        "flow": 17,
        "temperature": 7.3,
        "trend": "pada",
        "timestamp": "2025-12-19T23:33:55.659Z"
      }
    },
    {
      "name": "Kal-Koritnica",
      "river": "Koritnica",
      "coordinates": [
        46.3367328,
        13.5797432
      ],
      "data": {
        "waterLevel": 114,
        "flow": 3.77,
        "temperature": 7.5,
        "trend": null,
        "timestamp": "2025-12-19T23:33:55.661Z"
      }
    },
    {
      "name": "Žaga",
      "river": "Učja",
      "coordinates": [
        46.05367,
        15.5269523
      ],
      "data": {
        "waterLevel": 107,
        "flow": 1.04,
        "temperature": null,
        "trend": null,
        "timestamp": "2025-12-19T23:33:55.663Z"
      }
    },
    {
      "name": "Tolmin",
      "river": "Tolminka",
      "coordinates": [
        46.1829212,
        13.7333382
      ],
      "data": {
        "waterLevel": 78,
        "flow": 2.83,
        "temperature": 7.5,
        "trend": null,
        "timestamp": "2025-12-19T23:33:55.664Z"
      }
    },
    {
      "name": "Podroteja",
      "river": "Idrijca",
      "coordinates": [
        45.9877629,
        14.0324278
      ],
      "data": {
        "waterLevel": 93,
        "flow": 5.32,
        "temperature": 8.6,
        "trend": null,
        "timestamp": "2025-12-19T23:33:55.666Z"
      }
    },
    {
      "name": "Cerkno",
      "river": "Cerknica",
      "coordinates": [
        46.1279639,
        13.9881168
      ],
      "data": {
        "waterLevel": null,
        "flow": null,
        "temperature": null,
        "trend": null,
        "timestamp": "2025-12-19T23:33:55.673Z"
      }
    },
    {
      "name": "Dolenja Trebuša",
      "river": "Trebuša",
      "coordinates": [
        46.0932003,
        13.8389364
      ],
      "data": {
        "waterLevel": 56,
        "flow": 0.904,
        "temperature": 7.1,
        "trend": null,
        "timestamp": "2025-12-19T23:33:55.675Z"
      }
    },
    {
      "name": "Bača pri Modreju",
      "river": "Bača",
      "coordinates": [
        46.1450366,
        13.7668255
      ],
      "data": {
        "waterLevel": 66,
        "flow": 4.76,
        "temperature": 8.6,
        "trend": null,
        "timestamp": "2025-12-19T23:33:55.676Z"
      }
    },
    {
      "name": "Nova Gorica",
      "river": "Koren",
      "coordinates": [
        45.9580549,
        13.6474706
      ],
      "data": {
        "waterLevel": 95,
        "flow": 0.066,
        "temperature": 9.3,
        "trend": null,
        "timestamp": "2025-12-19T23:33:55.678Z"
      }
    },
    {
      "name": "Vipava",
      "river": "Vipava",
      "coordinates": [
        45.8466286,
        13.961222
      ],
      "data": {
        "waterLevel": 37,
        "flow": 3.56,
        "temperature": 9.8,
        "trend": null,
        "timestamp": "2025-12-19T23:33:55.680Z"
      }
    },
    {
      "name": "Dolenje",
      "river": "Vipava",
      "coordinates": [
        45.9246554,
        13.7619066
      ],
      "data": {
        "waterLevel": 73,
        "flow": 7.94,
        "temperature": 10.1,
        "trend": null,
        "timestamp": "2025-12-19T23:33:55.682Z"
      }
    },
    {
      "name": "Zalošče",
      "river": "Vipava",
      "coordinates": [
        45.8873596,
        13.747656
      ],
      "data": {
        "waterLevel": 88,
        "flow": 8.54,
        "temperature": 9.4,
        "trend": null,
        "timestamp": "2025-12-19T23:33:55.683Z"
      }
    },
    {
      "name": "Miren",
      "river": "Vipava",
      "coordinates": [
        45.894339,
        13.6089235
      ],
      "data": {
        "waterLevel": 108,
        "flow": 9.57,
        "temperature": 9.4,
        "trend": null,
        "timestamp": "2025-12-19T23:33:55.685Z"
      }
    },
    {
      "name": "Podnanos",
      "river": "Močilnik",
      "coordinates": [
        45.7972852,
        13.9724055
      ],
      "data": {
        "waterLevel": 24,
        "flow": 0.107,
        "temperature": 10.1,
        "trend": null,
        "timestamp": "2025-12-19T23:33:55.686Z"
      }
    },
    {
      "name": "Ajdovščina",
      "river": "Hubelj",
      "coordinates": [
        45.8885557,
        13.9048561
      ],
      "data": {
        "waterLevel": 60,
        "flow": 2.73,
        "temperature": 8.4,
        "trend": null,
        "timestamp": "2025-12-19T23:33:55.688Z"
      }
    },
    {
      "name": "Branik",
      "river": "Branica",
      "coordinates": [
        45.8558901,
        13.7842277
      ],
      "data": {
        "waterLevel": 102,
        "flow": null,
        "temperature": 9.9,
        "trend": null,
        "timestamp": "2025-12-19T23:33:55.690Z"
      }
    },
    {
      "name": "Volčja Draga",
      "river": "Lijak",
      "coordinates": [
        45.9058429,
        13.6756428
      ],
      "data": {
        "waterLevel": 115,
        "flow": 0.523,
        "temperature": 9.8,
        "trend": null,
        "timestamp": "2025-12-19T23:33:55.691Z"
      }
    },
    {
      "name": "Neblo",
      "river": "Reka",
      "coordinates": [
        46.0065915,
        13.5000009
      ],
      "data": {
        "waterLevel": 112,
        "flow": 0.12,
        "temperature": 9.1,
        "trend": null,
        "timestamp": "2025-12-19T23:33:55.695Z"
      }
    },
    {
      "name": "Golo Brdo",
      "river": "Idrija",
      "coordinates": [
        45.5656317,
        13.8507722
      ],
      "data": {
        "waterLevel": null,
        "flow": null,
        "temperature": null,
        "trend": null,
        "timestamp": "2025-12-19T23:33:55.696Z"
      }
    },
    {
      "name": "Potoki",
      "river": "Nadiža",
      "coordinates": [
        46.4156749,
        14.1199591
      ],
      "data": {
        "waterLevel": 106,
        "flow": 0.701,
        "temperature": 5.3,
        "trend": null,
        "timestamp": "2025-12-19T23:33:55.700Z"
      }
    },
    {
      "name": "Trpčane",
      "river": "Reka",
      "coordinates": [
        45.5271926,
        14.3173784
      ],
      "data": {
        "waterLevel": 96,
        "flow": 0.079,
        "temperature": 8.1,
        "trend": null,
        "timestamp": "2025-12-19T23:33:55.701Z"
      }
    },
    {
      "name": "Trnovo",
      "river": "Reka",
      "coordinates": [
        46.041719,
        14.5038838
      ],
      "data": {
        "waterLevel": 125,
        "flow": 1.03,
        "temperature": 8.2,
        "trend": null,
        "timestamp": "2025-12-19T23:33:55.703Z"
      }
    },
    {
      "name": "Ilirska Bistrica",
      "river": "Bistrica",
      "coordinates": [
        45.5636618,
        14.2453318
      ],
      "data": {
        "waterLevel": 95,
        "flow": 0.421,
        "temperature": 8.9,
        "trend": null,
        "timestamp": "2025-12-19T23:33:55.708Z"
      }
    },
    {
      "name": "Zarečica",
      "river": "Molja",
      "coordinates": [
        45.5586047,
        14.2239795
      ],
      "data": {
        "waterLevel": 83,
        "flow": 0.173,
        "temperature": 6.7,
        "trend": null,
        "timestamp": "2025-12-19T23:33:55.710Z"
      }
    },
    {
      "name": "Kubed",
      "river": "Rižana",
      "coordinates": [
        45.521536,
        13.8689334
      ],
      "data": {
        "waterLevel": 80,
        "flow": 0.786,
        "temperature": 11.1,
        "trend": null,
        "timestamp": "2025-12-19T23:33:55.711Z"
      }
    },
    {
      "name": "Dekani",
      "river": "Rižana",
      "coordinates": [
        45.5483275,
        13.8103444
      ],
      "data": {
        "waterLevel": 135,
        "flow": null,
        "temperature": 10.9,
        "trend": null,
        "timestamp": "2025-12-19T23:33:55.713Z"
      }
    },
    {
      "name": "Šalara",
      "river": "Badaševica",
      "coordinates": [
        45.5305301,
        13.7398344
      ],
      "data": {
        "waterLevel": 64,
        "flow": 0.153,
        "temperature": 11.1,
        "trend": null,
        "timestamp": "2025-12-19T23:33:55.715Z"
      }
    },
    {
      "name": "Pišine",
      "river": "Drnica",
      "coordinates": [
        45.4653711,
        13.6496741
      ],
      "data": {
        "waterLevel": 127,
        "flow": 0.123,
        "temperature": 12.3,
        "trend": null,
        "timestamp": "2025-12-19T23:33:55.716Z"
      }
    },
    {
      "name": "OB Piran",
      "river": "Jadransko morje",
      "coordinates": [
        45.4807793,
        13.6204783
      ],
      "data": {
        "waterLevel": null,
        "flow": null,
        "temperature": 13.4,
        "trend": null,
        "timestamp": "2025-12-19T23:33:55.721Z"
      }
    },
    {
      "name": "Debeli Rtič",
      "river": "Jadransko morje",
      "coordinates": [
        45.5905438,
        13.7071679
      ],
      "data": {
        "waterLevel": null,
        "flow": null,
        "temperature": null,
        "trend": null,
        "timestamp": "2025-12-19T23:33:55.723Z"
      }
    }
  ]
}